{"type": "FeatureCollection", "features": [{"type": "Feature", "geometry": {"type": "Point", "coordinates": [-73.88931259678718, 40.80774234443406]}, "properties": {"market_name": "Adjacent to Hunts Point Market", "market_type": "Mixed", "unique_companies": 66, "record_count": 95354}}, {"type": "Feature", "geometry": {"type": "Point", "coordinates": [-74.01060607692308, 40.65618461538462]}, "properties": {"market_name": "Brooklyn Wholesale Meat Market", "market_type": "Meat", "unique_companies": 26, "record_count": 41126}}, {"type": "Feature", "geometry": {"type": "Point", "coordinates": [-74.00414419531538, 40.741911787624495]}, "properties": {"market_name": "Gansevoort Meat Market", "market_type": "Meat", "unique_companies": 8, "record_count": 19226}}, {"type": "Feature", "geometry": {"type": "Point", "coordinates": [-73.88135859183598, 40.79964868302536]}, "properties": {"market_name": "Hunts Point Meat Market", "market_type": "Meat", "unique_companies": 38, "record_count": 48960}}, {"type": "Feature", "geometry": {"type": "Point", "coordinates": [-73.90047913659049, 40.786902177830314]}, "properties": {"market_name": "Hunts Point New Fulton Fish Market", "market_type": "Seafood", "unique_companies": 47, "record_count": 66818}}, {"type": "Feature", "geometry": {"type": "Point", "coordinates": [-73.88497323883948, 40.7810649204843]}, "properties": {"market_name": "Hunts Point Produce Market", "market_type": "Produce", "unique_companies": 33, "record_count": 34140}}, {"type": "Feature", "geometry": {"type": "Point", "coordinates": [-73.887972, 40.811909]}, "properties": {"market_name": "Public Wholesale Market", "market_type": "Mixed", "unique_companies": 1, "record_count": 476}}]}